City_ID,City,Lat,Lng,Max Temp,Humidity,Cloudiness,Wind Speed,Country,Date
0,la passe,45.5549,-0.8967,10.55,75,100,10.46,FR,2024-2-10
1,yunyang,33.4474,112.7142,15.5,24,26,5.04,CN,2024-2-10
2,hawaiian paradise park,19.5933,-154.9731,21.13,95,50,5.19,US,2024-2-10
3,grytviken,-54.2811,-36.5092,2.73,97,100,9.42,GS,2024-2-10
4,adamstown,-25.066,-130.1015,24.89,93,100,13.42,PN,2024-2-10
5,keflavik,64.0049,-22.5624,-4.76,74,40,4.63,IS,2024-2-10
6,susuman,62.7833,148.1667,-33.36,98,98,2.11,RU,2024-2-10
7,puerto ayora,-0.7393,-90.3518,25.86,98,39,4.14,EC,2024-2-10
8,port-aux-francais,-49.35,70.2167,7.94,97,100,10.08,TF,2024-2-10
9,rundu,-17.9333,19.7667,30.9,40,73,1.48,NA,2024-2-10
10,jamestown,42.097,-79.2353,10.77,88,75,5.66,US,2024-2-10
11,blackmans bay,-43.0167,147.3167,16.07,61,0,2.45,AU,2024-2-10
12,pitomaca,45.9506,17.2294,12.04,64,73,3.87,HR,2024-2-10
13,tazovsky,67.4667,78.7,-16.07,94,100,5.74,RU,2024-2-10
14,udachny,66.4167,112.4,-31.42,74,81,0.9,RU,2024-2-10
15,waitangi,-43.9535,-176.5597,17.12,81,68,4.02,NZ,2024-2-10
16,kruisfontein,-34.0033,24.7314,23.82,49,1,7.85,ZA,2024-2-10
17,albany,42.6001,-73.9662,7.23,83,100,1.56,US,2024-2-10
18,saipan,15.1355,145.701,26.49,73,94,8.52,MP,2024-2-10
19,inarajan village,13.2736,144.7484,28.33,83,100,8.7,GU,2024-2-10
20,aldan,58.6031,125.3894,-18.3,97,100,0.5,RU,2024-2-10
21,lihue,21.9789,-159.3672,22.77,77,100,4.63,US,2024-2-10
22,noshiro,40.2039,140.0242,2.46,97,100,3.82,JP,2024-2-10
23,papatowai,-46.5619,169.4708,8.77,79,100,8.08,NZ,2024-2-10
24,owen sound,44.5672,-80.9435,5.64,89,7,2.24,CA,2024-2-10
25,puerto natales,-51.7236,-72.4875,7.82,96,47,1.61,CL,2024-2-10
26,kodiak,57.79,-152.4072,0.73,80,100,3.09,US,2024-2-10
27,sinabang,2.4803,96.3801,29.67,70,98,2.68,ID,2024-2-10
28,road town,18.4167,-64.6167,24.31,65,100,6.98,VG,2024-2-10
29,yueyang,29.3333,113.0919,14.65,49,0,4.37,CN,2024-2-10
30,punta arenas,-53.15,-70.9167,10.62,76,0,4.63,CL,2024-2-10
31,suva,-18.1416,178.4415,25.71,100,100,0.0,FJ,2024-2-10
32,dongola,19.1667,30.4833,22.71,16,4,6.03,SD,2024-2-10
33,san agustin de valle fertil,-30.6335,-67.4682,22.12,80,12,2.31,AR,2024-2-10
34,boguchany,58.3814,97.4531,1.03,99,100,5.36,RU,2024-2-10
35,olonkinbyen,70.9221,-8.7187,-2.95,68,85,6.08,SJ,2024-2-10
36,mamou,10.5,-12.0,21.57,22,93,0.25,GN,2024-2-10
37,vredendal,-31.6683,18.5012,22.4,46,0,2.6,ZA,2024-2-10
38,port blair,11.6667,92.75,30.02,66,20,4.63,IN,2024-2-10
39,bethel,41.3712,-73.414,6.46,90,0,0.0,US,2024-2-10
40,mount gambier,-37.8333,140.7667,18.82,61,4,4.56,AU,2024-2-10
41,bredasdorp,-34.5322,20.0403,20.39,47,97,1.47,ZA,2024-2-10
42,nova sintra,14.8667,-24.7167,20.93,68,0,8.38,CV,2024-2-10
43,margaret river,-33.95,115.0667,22.51,74,0,7.98,AU,2024-2-10
44,hirara,24.8,125.2833,18.15,55,75,8.75,JP,2024-2-10
45,kakata,6.53,-10.3517,24.49,85,48,0.13,LR,2024-2-10
46,axim,4.8699,-2.2405,28.41,75,10,1.96,GH,2024-2-10
47,vilyuchinsk,52.9306,158.4028,-8.85,84,26,4.64,RU,2024-2-10
48,mesquite,32.7668,-96.5992,16.4,82,100,2.06,US,2024-2-10
49,villa del totoral,-30.8167,-63.7167,20.22,93,0,3.19,AR,2024-2-10
50,newman,37.3138,-121.0208,7.8,83,15,2.68,US,2024-2-10
51,edinburgh of the seven seas,-37.0676,-12.3116,19.45,97,100,11.39,SH,2024-2-10
52,kiruna,67.8557,20.2251,-28.49,76,57,0.0,SE,2024-2-10
53,chowchilla,37.123,-120.2602,7.08,81,0,4.12,US,2024-2-10
54,port elizabeth,-33.918,25.5701,25.05,76,40,6.69,ZA,2024-2-10
55,erdenet,49.0333,104.0833,-5.24,80,100,1.9,MN,2024-2-10
56,san juan de los morros,9.9115,-67.3538,22.06,97,54,1.39,VE,2024-2-10
57,crockett,31.3182,-95.4566,17.99,100,100,0.0,US,2024-2-10
58,tralee,52.2704,-9.7026,5.93,95,100,3.58,IE,2024-2-10
59,port lincoln,-34.7333,135.8667,21.29,62,48,5.87,AU,2024-2-10
60,amga,60.8953,131.9608,-34.08,100,85,0.92,RU,2024-2-10
61,hermanus,-34.4187,19.2345,22.67,53,52,2.98,ZA,2024-2-10
62,mizdah,31.4451,12.9801,14.03,29,95,4.8,LY,2024-2-10
63,jitra,6.2681,100.4217,34.95,36,20,4.63,MY,2024-2-10
64,swakopmund,-22.6833,14.5333,18.47,77,34,3.46,NA,2024-2-10
65,qaqortoq,60.7167,-46.0333,-16.82,86,44,5.13,GL,2024-2-10
66,longyearbyen,78.2186,15.6401,-5.09,68,75,11.32,SJ,2024-2-10
67,castillos,-34.1667,-53.8333,23.17,89,100,5.12,UY,2024-2-10
68,fuglafjordur,62.244,-6.814,3.26,60,100,11.65,FO,2024-2-10
69,iskateley,67.6803,53.1512,-22.77,99,73,3.58,RU,2024-2-10
70,dompu,-8.5356,118.4622,29.86,72,37,2.13,ID,2024-2-10
71,pakruojis,55.9667,23.8667,-3.56,95,100,6.29,LT,2024-2-10
72,avarua,-21.2078,-159.775,27.03,83,20,5.66,CK,2024-2-10
73,island harbour,50.724,-1.2758,9.4,95,100,2.52,GB,2024-2-10
74,sievi,63.9,24.5,-14.47,89,100,0.45,FI,2024-2-10
75,ushuaia,-54.8,-68.3,7.81,87,0,1.03,AR,2024-2-10
76,vorgashor,67.5833,63.95,-25.1,95,100,8.07,RU,2024-2-10
77,alo,7.4178,6.7371,29.96,41,21,1.27,NG,2024-2-10
78,begoro,6.3871,-0.3774,24.57,78,55,1.28,GH,2024-2-10
79,bandon,51.7469,-8.7425,8.77,97,78,3.33,IE,2024-2-10
80,port mathurin,-19.6833,63.4167,26.98,78,96,12.52,MU,2024-2-10
81,kargil,34.5667,76.1,-14.15,38,1,0.51,IN,2024-2-10
82,guerrero negro,27.9769,-114.0611,14.18,69,12,6.21,MX,2024-2-10
83,kill devil hills,36.0307,-75.676,12.21,89,40,1.54,US,2024-2-10
84,tai'an,36.1853,117.12,7.36,46,62,2.12,CN,2024-2-10
85,tvoroyri,61.5556,-6.8111,4.87,56,100,12.76,FO,2024-2-10
86,selfoss,63.9331,-20.9971,-11.64,75,86,4.12,IS,2024-2-10
87,ribeira grande,38.5167,-28.7,17.65,100,75,8.75,PT,2024-2-10
88,whitehorse,60.7161,-135.0538,-6.22,86,20,10.29,CA,2024-2-10
89,mana,5.6592,-53.7767,25.54,83,52,4.49,GF,2024-2-10
90,red hill,33.9996,-79.2581,12.16,19,100,2.69,US,2024-2-10
91,kalmunai,7.4167,81.8167,28.34,66,49,5.75,LK,2024-2-10
92,nyurba,63.2842,118.3319,-25.34,97,100,1.45,RU,2024-2-10
93,tazacorte,28.629,-17.9293,19.54,98,40,3.13,ES,2024-2-10
94,klyuchi,52.2667,79.1667,-0.17,75,100,7.74,RU,2024-2-10
95,georgetown,5.4112,100.3354,32.96,66,20,6.17,MY,2024-2-10
96,thompson,55.7435,-97.8558,-16.91,78,100,2.57,CA,2024-2-10
97,invercargill,-46.4,168.35,9.45,80,99,4.92,NZ,2024-2-10
98,antsiranana,-12.2787,49.2917,30.42,79,40,2.06,MG,2024-2-10
99,molde,62.7375,7.1591,-9.09,73,0,5.14,NO,2024-2-10
100,nakhchivan,39.2089,45.4122,11.82,43,6,1.03,AZ,2024-2-10
101,mo i rana,66.3128,14.1428,-13.74,78,80,2.68,NO,2024-2-10
102,egilsstadir,65.2653,-14.3948,-8.05,86,100,1.03,IS,2024-2-10
103,taoudenni,22.6783,-3.9836,20.07,10,5,2.47,ML,2024-2-10
104,polyarnyy,69.1989,33.4478,-14.81,91,100,2.53,RU,2024-2-10
105,yellowknife,62.456,-114.3525,-23.71,77,0,3.6,CA,2024-2-10
106,laghouat,33.8,2.8651,12.05,55,92,8.55,DZ,2024-2-10
107,sassandra,4.95,-6.0833,27.3,81,12,1.69,CI,2024-2-10
108,fukuecho,32.6881,128.8419,9.2,61,75,3.09,JP,2024-2-10
109,holualoa,19.6228,-155.9522,21.91,83,100,3.6,US,2024-2-10
110,west island,-12.1568,96.8225,30.99,66,8,5.66,CC,2024-2-10
111,chonchi,-42.6128,-73.8092,10.56,90,99,1.1,CL,2024-2-10
112,tiksi,71.6872,128.8694,-26.11,100,100,1.52,RU,2024-2-10
113,san patricio,28.017,-97.5169,21.58,85,100,2.83,US,2024-2-10
114,homer,59.6425,-151.5483,3.93,85,100,2.68,US,2024-2-10
115,uturoa,-16.7333,-151.4333,27.81,84,100,13.29,PF,2024-2-10
116,iqaluit,63.7506,-68.5145,-30.73,67,40,0.0,CA,2024-2-10
117,gornopravdinsk,60.05,69.9,-10.4,91,100,3.62,RU,2024-2-10
118,aasiaat,68.7098,-52.8699,-13.68,82,100,4.36,GL,2024-2-10
119,bilibino,68.0546,166.4372,-25.76,94,55,3.56,RU,2024-2-10
120,enewetak,11.3474,162.3373,26.48,80,100,10.01,MH,2024-2-10
121,new norfolk,-42.7826,147.0587,16.72,49,0,2.67,AU,2024-2-10
122,smithers,54.7804,-127.1743,-3.82,86,100,1.54,CA,2024-2-10
123,rancho palos verdes,33.7445,-118.387,11.99,62,28,2.68,US,2024-2-10
124,ilulissat,69.2167,-51.1,-23.05,97,71,5.62,GL,2024-2-10
125,pithampur,22.602,75.6965,24.78,41,0,4.12,IN,2024-2-10
126,trincomalee,8.5711,81.2335,27.68,68,83,6.16,LK,2024-2-10
127,kone,-21.0595,164.8658,25.6,84,56,3.36,NC,2024-2-10
128,belyy yar,53.6039,91.3903,5.94,52,0,6.0,RU,2024-2-10
129,perugorria,-29.3413,-58.6106,23.69,90,82,1.52,AR,2024-2-10
130,santo antonio do ica,-3.1022,-67.9397,23.89,98,100,0.28,BR,2024-2-10
131,nemuro,43.3236,145.575,-3.25,75,100,3.02,JP,2024-2-10
132,petropavlovsk-kamchatsky,53.0452,158.6483,-16.97,91,19,3.58,RU,2024-2-10
133,st anne,49.715,-2.2042,9.09,87,20,4.63,GG,2024-2-10
134,mount isa,-20.7333,139.5,33.87,36,100,4.12,AU,2024-2-10
135,andalusia,31.3085,-86.4833,17.92,95,100,0.0,US,2024-2-10
136,neya,58.2972,43.8681,-13.7,94,98,1.1,RU,2024-2-10
137,trairi,-3.2778,-39.2689,24.37,95,100,2.38,BR,2024-2-10
138,kapuskasing,49.4169,-82.4331,1.05,100,100,4.63,CA,2024-2-10
139,meadow lake,34.8014,-106.5436,4.0,52,100,2.44,US,2024-2-10
140,rikaze,29.25,88.8833,2.7,15,0,2.42,CN,2024-2-10
141,touros,-5.1989,-35.4608,27.63,79,19,8.32,BR,2024-2-10
142,tibu,8.639,-72.7358,22.0,97,100,0.52,CO,2024-2-10
143,dobroye,52.8678,39.8109,-11.8,92,80,1.32,RU,2024-2-10
144,san juan del rio,20.3833,-100.0,10.96,38,8,2.65,MX,2024-2-10
145,chul'man,56.8479,124.9104,-20.11,97,99,0.8,RU,2024-2-10
146,gadzhiyevo,69.2551,33.3362,-13.97,89,100,2.86,RU,2024-2-10
147,callao,-12.0667,-77.15,24.84,83,20,4.12,PE,2024-2-10
148,lobujya,27.95,86.8167,-9.26,50,1,3.73,NP,2024-2-10
149,nouadhibou,20.931,-17.0347,18.99,88,20,8.23,MR,2024-2-10
150,revda,56.801,59.9303,-16.73,92,100,5.6,RU,2024-2-10
151,stanley,54.868,-1.6985,4.87,93,100,1.54,GB,2024-2-10
152,newala kisimani,-10.95,39.2833,25.21,82,100,1.45,TZ,2024-2-10
153,banda aceh,5.5577,95.3222,31.39,58,88,3.95,ID,2024-2-10
154,badger,64.8,-147.5333,-11.05,87,75,0.0,US,2024-2-10
155,matozinhos,-19.5578,-44.0814,20.73,88,20,3.6,BR,2024-2-10
156,puttalam,8.0362,79.8283,29.92,60,15,5.36,LK,2024-2-10
157,cabo san lucas,22.8909,-109.9124,18.2,65,100,3.13,MX,2024-2-10
158,luena,-11.7833,19.9167,24.73,68,49,0.95,AO,2024-2-10
159,richards bay,-28.783,32.0377,25.22,77,96,6.99,ZA,2024-2-10
160,brookings,44.3114,-96.7984,-1.08,93,100,5.66,US,2024-2-10
161,kununurra,-15.7667,128.7333,34.99,49,75,2.57,AU,2024-2-10
162,loushanguan,28.1375,106.82,14.55,37,0,0.77,CN,2024-2-10
163,port alfred,-33.5906,26.891,22.88,71,1,5.36,ZA,2024-2-10
164,dubbo,-32.25,148.6167,26.07,50,20,9.26,AU,2024-2-10
165,archangelos,36.2149,28.1149,15.73,66,12,2.59,GR,2024-2-10
166,kish,26.5578,54.0194,23.15,53,0,2.06,IR,2024-2-10
167,phalodi,27.1333,72.3667,24.66,11,0,3.74,IN,2024-2-10
168,bikenibeu village,1.3673,173.1241,24.98,94,100,1.03,KI,2024-2-10
169,surgut,61.25,73.4167,-11.72,85,75,3.13,RU,2024-2-10
170,undurkhaan,47.3194,110.6556,-7.98,81,100,1.65,MN,2024-2-10
171,wailua homesteads,22.0669,-159.378,22.44,89,100,4.63,US,2024-2-10
172,college,64.8569,-147.8028,-11.01,85,40,0.0,US,2024-2-10
173,verkhnevilyuysk,63.4453,120.3167,-25.31,97,100,1.89,RU,2024-2-10
174,broome,42.2506,-75.833,9.21,80,0,4.63,US,2024-2-10
175,cill airne,52.05,-9.5167,6.81,98,100,2.49,IE,2024-2-10
176,manado,1.487,124.8455,28.79,70,30,4.15,ID,2024-2-10
177,gaigeturi,33.4644,126.3183,8.03,76,100,6.17,KR,2024-2-10
178,sinop,41.7711,34.8709,15.24,69,100,0.58,TR,2024-2-10
179,bogo,11.0517,124.0055,28.23,70,4,4.56,PH,2024-2-10
180,hasaki,35.7333,140.8333,12.38,57,77,2.38,JP,2024-2-10
181,harper,4.375,-7.7169,27.38,83,17,1.79,LR,2024-2-10
182,coquimbo,-29.9533,-71.3436,19.41,80,0,1.26,CL,2024-2-10
183,saint-philippe,-21.3585,55.7679,27.77,90,100,2.56,RE,2024-2-10
184,nova vicosa,-17.8919,-39.3719,22.88,90,12,2.38,BR,2024-2-10
185,talnakh,69.4865,88.3972,-24.99,79,14,2.05,RU,2024-2-10
186,tura,25.5198,90.2201,26.84,23,0,1.39,IN,2024-2-10
187,tranqueras,-31.2,-55.75,23.3,87,96,3.55,UY,2024-2-10
188,kurchatov,51.6601,35.6521,-3.1,91,100,4.89,RU,2024-2-10
189,tolanaro,-25.0319,46.9987,29.08,69,12,8.22,MG,2024-2-10
190,ust-nera,64.5667,143.2,-33.08,100,100,0.48,RU,2024-2-10
191,mejit,10.2753,170.8646,26.16,78,100,10.73,MH,2024-2-10
192,post,33.1909,-101.3782,10.31,33,100,0.47,US,2024-2-10
193,sitka,57.0531,-135.33,5.94,75,100,2.06,US,2024-2-10
194,gaoping,30.7758,106.1029,15.51,45,0,2.27,CN,2024-2-10
195,ephrata,40.1798,-76.1788,8.12,87,0,0.0,US,2024-2-10
196,nago,26.5881,127.9761,17.24,56,0,6.24,JP,2024-2-10
197,omsk,55.0,73.4,-13.06,78,0,8.05,RU,2024-2-10
198,cidreira,-30.1811,-50.2056,24.35,89,43,8.44,BR,2024-2-10
199,pavlovka,52.6897,47.1405,-12.15,89,56,2.62,RU,2024-2-10
200,minas de marcona,-15.2119,-75.1103,19.19,84,99,4.29,PE,2024-2-10
201,afif,23.9065,42.9172,21.09,30,100,8.29,SA,2024-2-10
202,kenai,60.5544,-151.2583,0.03,86,100,2.06,US,2024-2-10
203,namibe,-15.1961,12.1522,25.5,77,97,1.76,AO,2024-2-10
204,alice springs,-23.7,133.8833,35.75,26,75,7.72,AU,2024-2-10
205,porto novo,6.4965,2.6036,28.56,72,5,1.81,BJ,2024-2-10
206,isafjordur,66.0755,-23.124,-6.93,71,98,2.25,IS,2024-2-10
207,maba,24.6841,113.5984,16.7,47,0,1.53,CN,2024-2-10
208,hamilton,39.1834,-84.5333,14.39,89,100,4.63,US,2024-2-10
209,acarau,-2.8856,-40.12,27.78,79,100,7.69,BR,2024-2-10
210,remire-montjoly,4.9167,-52.2667,27.02,83,75,3.6,GF,2024-2-10
211,lorengau,-2.0226,147.2712,28.57,79,100,5.0,PG,2024-2-10
212,vadso,70.0744,29.7487,-12.91,85,100,2.57,NO,2024-2-10
213,valparaiso,-33.0393,-71.6273,12.8,87,0,2.06,CL,2024-2-10
214,sola,-13.8833,167.55,28.17,78,100,10.45,VU,2024-2-10
215,vung tau,10.346,107.0843,28.04,68,6,9.26,VN,2024-2-10
216,pimenta bueno,-11.6725,-61.1936,23.28,95,100,0.7,BR,2024-2-10
217,greymouth,-42.4667,171.2,14.85,64,48,13.31,NZ,2024-2-10
218,ivins,37.1686,-113.6794,3.62,87,100,0.89,US,2024-2-10
219,sao felix do xingu,-6.6447,-51.995,22.83,99,100,1.03,BR,2024-2-10
220,sarangani,5.4033,125.4636,29.08,70,63,2.97,PH,2024-2-10
221,nikolayevsk-on-amure,53.1406,140.73,-18.02,99,99,0.51,RU,2024-2-10
222,bonthe,7.5264,-12.505,26.01,84,30,2.47,SL,2024-2-10
223,katabu,-4.9333,122.5167,30.55,67,90,2.12,ID,2024-2-10
224,yenisarbademli,37.7078,31.3864,7.82,63,100,2.52,TR,2024-2-10
225,wanning,18.8003,110.3967,19.68,74,92,6.02,CN,2024-2-10
226,howrah,22.5892,88.3103,24.0,41,1,5.14,IN,2024-2-10
227,fada,9.5667,8.3,27.02,18,96,1.05,NG,2024-2-10
228,santana,-0.0583,-51.1817,26.1,94,75,2.57,BR,2024-2-10
229,curillo,1.0333,-75.9191,21.9,99,70,0.62,CO,2024-2-10
230,hithadhoo,-0.6,73.0833,28.57,69,100,6.94,MV,2024-2-10
231,santa ana,33.7456,-117.8678,11.59,83,0,2.06,US,2024-2-10
232,berezovyy,51.6667,135.7,-18.34,94,10,0.52,RU,2024-2-10
233,oban,56.4127,-5.4706,4.1,88,100,3.98,GB,2024-2-10
234,garagoa,5.0824,-73.3633,16.12,96,85,0.46,CO,2024-2-10
235,veraval,20.9,70.3667,28.03,27,0,3.98,IN,2024-2-10
236,saldanha,-33.0117,17.9442,20.08,61,0,8.21,ZA,2024-2-10
237,codrington,-38.2667,141.9667,18.99,66,0,4.65,AU,2024-2-10
238,port saint john's,-31.6229,29.5448,26.23,40,46,4.9,ZA,2024-2-10
239,hun,29.1268,15.9477,17.15,22,75,6.35,LY,2024-2-10
240,kharp,66.8014,65.8081,-22.92,91,93,1.21,RU,2024-2-10
241,hotan,37.0997,79.9269,6.03,35,0,2.03,CN,2024-2-10
242,ambositra,-20.5167,47.25,20.41,90,100,1.88,MG,2024-2-10
243,llallagua,-18.4167,-66.6333,8.49,77,100,1.24,BO,2024-2-10
244,east london,-33.0153,27.9116,23.66,50,4,9.92,ZA,2024-2-10
245,apatity,67.5641,33.4031,-14.08,96,100,0.62,RU,2024-2-10
246,az zulfi,26.2995,44.8154,19.66,34,100,8.25,SA,2024-2-10
247,formosa,-26.1775,-58.1781,25.99,92,0,0.0,AR,2024-2-10
248,chandur bazar,21.2417,77.7456,30.03,23,0,3.49,IN,2024-2-10
249,qeshm,26.9581,56.2719,23.93,52,93,0.53,IR,2024-2-10
250,sarina,-21.4333,149.2167,29.04,11,7,4.56,AU,2024-2-10
251,constantia,44.1833,28.65,11.5,72,100,4.17,RO,2024-2-10
252,ballina,-28.8667,153.5667,23.21,95,75,4.04,AU,2024-2-10
253,saint-pierre,-21.3393,55.4781,27.82,74,20,1.54,RE,2024-2-10
254,jefferson city,38.5767,-92.1735,7.95,61,0,4.63,US,2024-2-10
255,victorica,-36.2151,-65.4359,20.68,89,100,2.93,AR,2024-2-10
256,rantauprapat,2.1,99.8333,32.28,55,31,0.61,ID,2024-2-10
257,pangyan,5.7008,125.2811,31.99,60,35,2.68,PH,2024-2-10
258,dudinka,69.4058,86.1778,-20.74,79,100,4.47,RU,2024-2-10
259,kota kinabalu,5.9749,116.0724,29.99,74,20,4.63,MY,2024-2-10
260,ubinskoye,55.3068,79.6802,-7.7,86,89,7.62,RU,2024-2-10
261,cockburn town,21.4612,-71.1419,22.89,68,100,8.44,TC,2024-2-10
262,atasu,48.6814,71.6433,-0.23,89,100,4.32,KZ,2024-2-10
263,zverevo,48.0211,40.1228,0.21,98,100,4.25,RU,2024-2-10
264,novyy turtkul',41.55,61.0167,13.95,27,99,6.2,UZ,2024-2-10
265,port douglas,-16.4833,145.4667,27.26,80,92,2.45,AU,2024-2-10
266,golere,16.2557,-14.1017,23.48,10,0,4.12,SN,2024-2-10
267,kenora,49.8167,-94.4337,-10.68,85,100,3.58,CA,2024-2-10
268,llorente,11.4119,125.5458,27.16,69,1,5.44,PH,2024-2-10
269,tsiombe,-25.3,45.4833,33.44,49,0,3.3,MG,2024-2-10
270,la'ie,21.6477,-157.9253,21.73,88,25,4.47,US,2024-2-10
271,bel ombre,-4.6167,55.4167,27.92,73,100,1.6,SC,2024-2-10
272,fortuna,40.5982,-124.1573,7.03,96,100,0.0,US,2024-2-10
273,santo tome,-31.6627,-60.7653,24.43,97,10,2.68,AR,2024-2-10
274,talara,-4.5772,-81.2719,25.43,88,100,4.8,PE,2024-2-10
275,atchison,39.563,-95.1216,2.17,83,26,4.49,US,2024-2-10
276,makhambet,47.6667,51.5833,-1.39,88,100,5.73,KZ,2024-2-10
277,oodweyne,9.4092,45.064,25.86,42,7,4.45,SO,2024-2-10
278,sisimiut,66.9395,-53.6735,-19.58,88,100,4.88,GL,2024-2-10
279,alofi,-19.0595,-169.9187,27.63,83,99,8.18,NU,2024-2-10
280,utrik,11.2278,169.8474,26.01,78,100,10.82,MH,2024-2-10
281,witten,51.4333,7.3333,10.49,93,83,1.93,DE,2024-2-10
282,tofol,5.3248,163.0078,27.91,69,100,9.15,FM,2024-2-10
283,itamaraca,-7.7478,-34.8256,28.03,75,100,4.05,BR,2024-2-10
284,karratha,-20.7377,116.8463,29.21,78,0,6.86,AU,2024-2-10
285,narvik,68.4384,17.4272,-6.33,76,96,2.67,NO,2024-2-10
286,adrar,20.5022,-10.0711,19.47,10,0,3.19,MR,2024-2-10
287,madimba,-10.4,40.3333,28.62,81,100,4.95,TZ,2024-2-10
288,natal,-5.795,-35.2094,26.36,83,20,2.57,BR,2024-2-10
289,boda,4.3189,17.4695,31.13,15,4,2.08,CF,2024-2-10
290,pierre,44.3683,-100.351,-1.75,77,100,3.6,US,2024-2-10
291,kapa'a,22.0752,-159.319,23.18,83,100,4.12,US,2024-2-10
292,wakkanai,45.4094,141.6739,-3.28,70,100,2.24,JP,2024-2-10
293,alderetes,-26.8167,-65.1333,22.95,94,40,2.06,AR,2024-2-10
294,muynoq,43.7683,59.0214,12.71,52,7,1.59,UZ,2024-2-10
295,sur,22.5667,59.5289,24.0,60,71,3.35,OM,2024-2-10
296,aykhal,66.0,111.5,-31.84,100,89,0.86,RU,2024-2-10
297,taroudant,30.4703,-8.877,13.9,89,66,5.0,MA,2024-2-10
298,kuta,-8.7233,115.1723,31.97,70,20,5.36,ID,2024-2-10
299,vorkuta,67.5,64.0,-24.29,92,100,6.51,RU,2024-2-10
300,atafu village,-8.5421,-172.5159,28.6,80,100,7.31,TK,2024-2-10
301,breves,-1.6822,-50.4803,23.97,98,100,1.44,BR,2024-2-10
302,winterset,41.3308,-94.0138,1.44,77,5,4.51,US,2024-2-10
303,floresville,29.1336,-98.1561,20.66,92,100,1.87,US,2024-2-10
304,brumunddal,60.881,10.9395,-14.75,97,100,0.77,NO,2024-2-10
305,buala,-8.145,159.5921,26.31,87,100,5.25,SB,2024-2-10
306,corner brook,48.9667,-57.9484,-14.08,99,83,1.65,CA,2024-2-10
307,tabou,4.423,-7.3528,27.38,82,8,1.76,CI,2024-2-10
308,labytnangi,66.6572,66.4183,-25.06,90,87,1.21,RU,2024-2-10
309,saudarkrokur,65.7461,-19.6394,-9.48,83,100,2.84,IS,2024-2-10
310,nzerekore,7.7562,-8.8179,20.41,64,88,0.5,GN,2024-2-10
311,gisborne,-38.6533,178.0042,20.9,76,90,3.67,NZ,2024-2-10
312,nar'yan-mar,67.6713,53.087,-22.72,99,73,3.58,RU,2024-2-10
313,ebon,4.582,168.6964,24.59,92,100,1.62,MH,2024-2-10
314,turbat,26.0023,63.044,24.1,34,0,1.74,PK,2024-2-10
315,katsuren-haebaru,26.3369,127.8719,17.21,51,20,7.2,JP,2024-2-10
316,gembu,6.7,11.2667,25.06,21,27,1.18,NG,2024-2-10
317,mahina,-17.5065,-149.489,24.87,94,75,4.63,PF,2024-2-10
318,vila do maio,15.1333,-23.2167,24.27,63,0,6.33,CV,2024-2-10
319,bardai,11.65,7.2333,22.55,14,8,5.2,NG,2024-2-10
320,mayna,54.1135,47.6231,-19.34,91,73,2.8,RU,2024-2-10
321,antalaha,-14.9003,50.2788,29.07,72,100,4.58,MG,2024-2-10
322,chitipa,-9.7024,33.2697,24.48,69,96,1.59,MW,2024-2-10
323,st. john's,47.5649,-52.7093,-3.45,94,98,3.13,CA,2024-2-10
324,vernon,50.2581,-119.2691,-2.99,76,71,3.09,CA,2024-2-10
325,carletonville,-26.3609,27.3977,26.86,43,0,4.5,ZA,2024-2-10
326,cole harbour,44.6724,-63.4751,-0.29,92,33,1.34,CA,2024-2-10
327,magdagachi,53.45,125.8,-15.62,96,100,1.01,RU,2024-2-10
328,nadym,65.5333,72.5167,-17.43,95,100,7.67,RU,2024-2-10
329,flying fish cove,-10.4217,105.6791,29.82,74,75,3.6,CX,2024-2-10
330,thunder bay,48.4001,-89.3168,-5.72,81,100,5.38,CA,2024-2-10
331,pieksamaki,62.3,27.1333,-11.0,94,100,2.02,FI,2024-2-10
332,bridgetown,13.1,-59.6167,26.27,83,40,7.2,BB,2024-2-10
333,petrovsk-zabaykal'skiy,51.273,108.843,-6.8,72,19,2.49,RU,2024-2-10
334,puerto yuca,2.9383,-73.2083,22.73,97,83,1.25,CO,2024-2-10
335,carutapera,-1.195,-46.02,25.05,94,90,3.17,BR,2024-2-10
336,san antonio de pale,-1.4014,5.6325,28.62,70,27,2.18,GQ,2024-2-10
337,ghanzi,-21.5667,21.7833,30.87,32,95,1.86,BW,2024-2-10
338,glace bay,46.1969,-59.957,-5.58,94,20,2.57,CA,2024-2-10
339,crane,31.3974,-102.3501,12.92,25,100,4.01,US,2024-2-10
340,ust'-ilimsk,58.0006,102.6619,-0.87,90,100,3.58,RU,2024-2-10
341,anadyr,64.75,177.4833,-18.72,84,0,7.0,RU,2024-2-10
342,lebu,-37.6167,-73.65,14.23,93,3,3.8,CL,2024-2-10
343,magadan,59.5667,150.8,-26.71,86,44,2.87,RU,2024-2-10
344,chimoio,-19.1164,33.4833,27.92,61,75,1.29,MZ,2024-2-10
345,malvan,16.0667,73.4667,26.49,58,0,4.13,IN,2024-2-10
346,kattivakkam,13.2167,80.3167,32.05,65,84,4.27,IN,2024-2-10
347,driefontein,-27.0177,30.4498,31.57,25,0,2.75,ZA,2024-2-10
348,fisterra,42.9049,-9.2629,10.01,61,64,13.68,ES,2024-2-10
349,ust'-uda,54.1742,103.0304,-4.32,82,96,2.31,RU,2024-2-10
350,arraial do cabo,-22.9661,-42.0278,24.92,83,0,4.12,BR,2024-2-10
351,hammerfest,70.6634,23.6821,-8.75,79,5,3.6,NO,2024-2-10
352,freetown,8.484,-13.2299,25.9,83,10,0.69,SL,2024-2-10
353,port augusta,-32.5,137.7667,30.63,26,0,7.93,AU,2024-2-10
354,mount pearl,47.5166,-52.7813,-3.91,94,99,1.34,CA,2024-2-10
355,filadelfia,39.9523,-75.1638,7.64,83,75,1.54,US,2024-2-10
356,christchurch,-43.5333,172.6333,13.84,83,75,5.66,NZ,2024-2-10
357,san luis de la loma,17.2706,-100.8939,21.56,84,44,2.01,MX,2024-2-10
358,balkanabat,39.5108,54.3671,15.06,40,100,1.61,TM,2024-2-10
359,guarapari,-20.6667,-40.4975,22.72,87,10,1.78,BR,2024-2-10
360,grand falls-windsor,48.9332,-55.6649,-16.44,99,84,1.4,CA,2024-2-10
361,talaja,21.35,72.05,27.88,24,0,3.99,IN,2024-2-10
362,dakoro,14.5106,6.765,20.69,12,0,4.08,NE,2024-2-10
363,palikir - national government center,6.9248,158.1611,27.47,69,100,5.14,FM,2024-2-10
364,yeniseysk,58.4497,92.1703,2.19,100,100,7.15,RU,2024-2-10
365,taltal,-25.4,-70.4833,21.27,85,32,1.13,CL,2024-2-10
366,yuzhno-kurilsk,44.0306,145.8556,-4.24,66,100,2.78,RU,2024-2-10
367,kidal,18.4411,1.4078,21.54,9,0,1.75,ML,2024-2-10
368,cerano,20.1167,-101.3833,11.87,54,54,1.61,MX,2024-2-10
369,queenstown,-31.8976,26.8753,20.57,41,1,1.91,ZA,2024-2-10
370,la jolla,32.8473,-117.2742,10.93,87,100,2.06,US,2024-2-10
371,sao joao da barra,-21.6403,-41.0511,23.64,85,6,2.15,BR,2024-2-10
372,labrador city,52.9463,-66.9114,-3.05,99,100,4.63,CA,2024-2-10
373,ahar,38.4774,47.0699,6.36,65,6,3.76,IR,2024-2-10
374,laurel,39.0993,-76.8483,11.54,80,0,0.0,US,2024-2-10
375,akureyri,65.6835,-18.0878,-7.17,96,100,1.5,IS,2024-2-10
376,regina,50.4501,-104.6178,-8.01,73,100,6.17,CA,2024-2-10
377,fort mcmurray,56.7268,-111.381,-14.23,85,100,1.03,CA,2024-2-10
378,burang,30.25,81.1667,-3.33,29,0,3.04,CN,2024-2-10
379,tangalle,6.024,80.7911,33.09,59,76,7.54,LK,2024-2-10
380,robore,-18.3333,-59.75,24.67,78,98,1.44,BO,2024-2-10
381,agadez,19.75,10.25,18.82,15,49,0.88,NE,2024-2-10
382,peruibe,-24.32,-46.9983,25.1,93,88,1.77,BR,2024-2-10
383,zimovniki,47.1483,42.4633,2.63,98,100,2.76,RU,2024-2-10
384,okahandja,-21.9833,16.9167,29.91,23,89,5.8,NA,2024-2-10
385,hameln,52.104,9.3562,9.97,94,99,1.93,DE,2024-2-10
386,rongelap,11.1635,166.8941,26.12,82,76,10.4,MH,2024-2-10
387,isfara,40.1265,70.6253,11.36,27,99,2.2,TJ,2024-2-10
388,newton abbot,50.5286,-3.6119,8.69,93,100,2.87,GB,2024-2-10
389,palmer,42.1584,-72.3287,4.49,90,100,0.0,US,2024-2-10
390,vanimo,-2.6741,141.3028,27.57,87,95,3.31,PG,2024-2-10
391,felipe carrillo puerto,19.5833,-88.05,19.65,91,31,0.82,MX,2024-2-10
392,muisne,0.6,-80.0333,25.06,91,100,0.27,EC,2024-2-10
393,tarauaca,-8.1614,-70.7656,23.53,98,100,0.88,BR,2024-2-10
394,sokoni,-6.4333,39.55,29.45,72,98,5.13,TZ,2024-2-10
395,san ignacio,17.1561,-89.0714,16.08,100,0,0.0,BZ,2024-2-10
396,worthington,40.0931,-83.018,12.68,92,20,3.09,US,2024-2-10
397,fort bragg,35.139,-79.006,13.03,87,75,2.57,US,2024-2-10
398,prince rupert,54.3161,-130.3201,5.05,93,100,12.35,CA,2024-2-10
399,lerwick,60.1545,-1.1494,1.0,73,100,11.69,GB,2024-2-10
400,zmeinogorsk,51.1567,82.195,2.0,74,100,10.82,RU,2024-2-10
401,puerto colombia,10.9878,-74.9547,25.05,79,5,8.04,CO,2024-2-10
402,hadibu,12.65,54.0333,27.37,64,53,6.76,YE,2024-2-10
403,bangangte,5.1409,10.5198,25.07,28,5,1.53,CM,2024-2-10
404,yigo village,13.5361,144.8886,27.62,74,0,8.23,GU,2024-2-10
405,luanda,-8.8368,13.2343,30.0,70,40,4.63,AO,2024-2-10
406,terekli-mekteb,44.1671,45.8698,13.64,47,85,1.58,RU,2024-2-10
407,strezhevoy,60.7333,77.5889,-11.13,90,100,5.36,RU,2024-2-10
408,santiago del estero,-27.7951,-64.2615,24.08,82,38,2.25,AR,2024-2-10
409,lensk,60.7253,114.9278,-18.07,95,100,1.81,RU,2024-2-10
410,thatta,24.7475,67.9235,27.79,15,0,3.67,PK,2024-2-10
411,elko,41.0002,-115.5012,-4.99,99,52,2.07,US,2024-2-10
412,baykal'sk,51.5058,104.1469,-3.88,86,21,0.66,RU,2024-2-10
413,haiku-pauwela,20.9219,-156.3051,22.8,83,20,3.13,US,2024-2-10
414,saynshand,44.8824,110.1163,-9.15,82,4,3.98,MN,2024-2-10
415,misawa,40.6836,141.3597,2.0,98,100,1.6,JP,2024-2-10
416,yokadouma,3.5167,15.05,31.05,24,100,0.95,CM,2024-2-10
417,shakiso,5.75,38.9167,26.74,35,66,3.05,ET,2024-2-10
418,strathmore,51.0501,-113.3852,-10.92,85,9,0.51,CA,2024-2-10
419,saint-joseph,-21.3667,55.6167,27.21,80,99,5.21,RE,2024-2-10
420,al jawf,29.5,38.75,14.3,45,22,6.7,SA,2024-2-10
421,basoko,1.2391,23.616,29.35,53,100,1.35,CD,2024-2-10
422,lazaro cardenas,17.9583,-102.2,20.94,85,24,1.81,MX,2024-2-10
423,puerto lopez,4.0845,-72.956,24.58,87,48,0.75,CO,2024-2-10
424,wajir,1.7471,40.0573,34.43,33,0,6.48,KE,2024-2-10
425,cabugao,17.7931,120.4578,29.94,78,3,16.59,PH,2024-2-10
426,inhambane,-23.865,35.3833,32.98,44,1,2.02,MZ,2024-2-10
427,kingston,17.997,-76.7936,22.36,80,0,0.45,JM,2024-2-10
428,kailua-kona,19.6406,-155.9956,23.98,82,100,3.6,US,2024-2-10
429,poronaysk,49.2167,143.1167,-16.82,99,65,1.55,RU,2024-2-10
430,mossel bay,-34.1831,22.146,20.96,54,66,2.38,ZA,2024-2-10
431,burla,21.5,83.8667,28.41,24,0,1.43,IN,2024-2-10
432,praia,14.9215,-23.5087,22.3,53,0,5.14,CV,2024-2-10
433,dzhetygara,52.1908,61.2006,-14.62,88,15,6.06,KZ,2024-2-10
434,saint-francois,46.4154,3.9054,8.69,100,75,1.03,FR,2024-2-10
435,devoto,-31.4043,-62.3063,21.36,97,2,1.92,AR,2024-2-10
436,laguna,38.421,-121.4238,7.99,86,0,3.6,US,2024-2-10
437,xingcheng,40.6167,120.7167,3.41,26,20,3.24,CN,2024-2-10
438,ibb,13.9667,44.1833,22.11,40,5,2.81,YE,2024-2-10
439,bloomfield,40.8068,-74.1854,8.9,81,0,2.06,US,2024-2-10
440,perico,22.7692,-81.0189,17.73,85,72,3.1,CU,2024-2-10
441,kirakira,-10.4544,161.9205,27.31,87,99,13.02,SB,2024-2-10
442,chos malal,-37.3781,-70.2709,14.54,81,0,1.15,AR,2024-2-10
443,island lake,42.2761,-88.192,1.68,86,6,0.89,US,2024-2-10
444,punta cardon,11.6581,-70.215,25.55,82,2,8.37,VE,2024-2-10
445,humahuaca,-23.2054,-65.3505,14.65,81,53,1.34,AR,2024-2-10
446,san jose,37.3394,-121.895,9.03,86,0,1.54,US,2024-2-10
447,zykovo,55.9519,93.1461,7.41,84,100,9.41,RU,2024-2-10
448,adana,36.985,35.2881,18.29,55,40,4.63,TR,2024-2-10
449,port-vila,-17.7338,168.3219,26.78,94,100,5.66,VU,2024-2-10
450,barra de santo antonio,-9.4047,-35.5072,25.6,83,100,0.93,BR,2024-2-10
451,bobo-dioulasso,11.1771,-4.2979,24.25,23,39,0.0,BF,2024-2-10
452,giado,31.9582,12.0203,13.45,25,100,8.26,LY,2024-2-10
453,alaghsas,17.0187,8.0168,22.65,11,93,2.91,NE,2024-2-10
454,armacao de buzios,-22.7469,-41.8817,25.03,87,93,5.68,BR,2024-2-10
455,novyy urengoy,66.0833,76.6333,-15.32,95,100,6.75,RU,2024-2-10
456,cabedelo,-6.9811,-34.8339,27.37,80,70,3.38,BR,2024-2-10
457,santa cruz,-17.8,-63.1667,22.7,94,20,3.6,BO,2024-2-10
458,soyibug,34.0792,74.7111,5.48,44,0,0.29,IN,2024-2-10
459,lompoc,34.6391,-120.4579,9.32,79,0,3.6,US,2024-2-10
460,caleta de carquin,-11.0925,-77.6267,23.71,85,40,5.05,PE,2024-2-10
461,afaahiti,-17.75,-149.2833,23.93,87,100,7.05,PF,2024-2-10
462,hoa binh,20.8133,105.3383,18.91,52,100,1.46,VN,2024-2-10
463,grootfontein,-19.5667,18.1167,30.76,42,0,0.0,NA,2024-2-10
464,kayangel,8.0823,134.7173,27.26,84,100,9.68,PW,2024-2-10
465,faya-largeau,17.9257,19.1043,22.94,15,0,7.2,TD,2024-2-10
466,teguise,29.0605,-13.564,18.12,77,40,2.57,ES,2024-2-10
467,ta`u,-14.2336,-169.5144,28.33,83,100,7.46,AS,2024-2-10
468,cunha,-23.0744,-44.9597,17.28,93,92,0.99,BR,2024-2-10
469,igurusi,-8.85,33.85,23.91,80,98,1.55,TZ,2024-2-10
470,melfort,52.8667,-104.6177,-7.93,73,67,3.09,CA,2024-2-10
471,gorgan,36.8387,54.4348,15.98,67,0,0.0,IR,2024-2-10
472,macultepec,18.1667,-92.8333,21.16,95,0,3.31,MX,2024-2-10
473,blenheim,-41.516,173.9528,20.29,45,0,0.45,NZ,2024-2-10
474,ancud,-41.8697,-73.8203,13.55,80,100,1.89,CL,2024-2-10
475,puerto ayacucho,5.6639,-67.6236,24.32,89,47,2.31,VE,2024-2-10
476,kimbe,-5.5502,150.1429,26.23,90,100,1.43,PG,2024-2-10
477,al qutayfah,33.7385,36.6007,6.9,62,0,1.03,SY,2024-2-10
478,la ronge,55.1001,-105.2842,-9.86,73,100,2.06,CA,2024-2-10
479,tauranga,-37.6861,176.1667,21.47,94,75,2.39,NZ,2024-2-10
480,nosy varika,-20.5833,48.5333,26.2,89,100,0.79,MG,2024-2-10
481,onega,63.9061,38.1404,-17.42,100,100,1.4,RU,2024-2-10
482,camana,-16.6228,-72.7111,23.58,89,59,2.8,PE,2024-2-10
483,ko pha ngan,9.7578,100.0291,28.38,74,96,8.19,TH,2024-2-10
484,portland,45.5234,-122.6762,7.13,94,100,2.57,US,2024-2-10
485,dolores,-36.3132,-57.6792,21.51,97,100,5.79,AR,2024-2-10
486,terbanggi besar,-4.8667,105.2333,28.52,77,90,2.27,ID,2024-2-10
487,dom pedrito,-30.9828,-54.6731,22.17,90,100,4.08,BR,2024-2-10
488,moree,-29.4667,149.85,31.67,34,74,6.93,AU,2024-2-10
489,sabang,5.8933,95.3214,28.96,71,69,10.19,ID,2024-2-10
490,mersa matruh,31.3525,27.2453,15.74,73,0,1.9,EG,2024-2-10
491,thurgoona,-36.0451,146.9919,30.45,88,10,0.45,AU,2024-2-10
492,colonia,50.9333,6.95,10.46,89,0,3.6,DE,2024-2-10
493,mugia,43.1041,-9.2179,10.51,64,74,12.52,ES,2024-2-10
494,chesma,53.8111,60.6533,-16.06,83,12,4.52,RU,2024-2-10
495,prainha,-1.8,-53.48,22.83,97,86,1.49,BR,2024-2-10
496,san-pedro,4.7485,-6.6363,27.51,82,12,1.24,CI,2024-2-10
497,fayroz koh,34.5195,65.2509,0.64,42,5,2.15,AF,2024-2-10
498,kerikeri,-35.2268,173.9474,22.17,79,41,1.98,NZ,2024-2-10
499,oppdal,62.5943,9.6912,-18.54,88,100,4.04,NO,2024-2-10
500,eydhafushi,5.1033,73.0708,27.79,77,100,9.44,MV,2024-2-10
501,uyar,55.81,94.3153,3.92,70,100,10.51,RU,2024-2-10
502,shanghai,31.2222,121.4581,15.52,47,0,4.0,CN,2024-2-10
503,pisco,-13.7,-76.2167,23.9,94,75,3.09,PE,2024-2-10
504,sittwe,20.15,92.9,24.8,43,0,5.29,MM,2024-2-10
505,la sarre,48.8002,-79.1996,0.65,93,100,3.89,CA,2024-2-10
506,taskopru,41.5098,34.2141,14.3,59,97,0.9,TR,2024-2-10
507,chaihe,44.7667,129.7,-10.38,87,48,1.43,CN,2024-2-10
508,najran,17.4924,44.1277,26.53,30,0,3.14,SA,2024-2-10
509,molochnoye,59.2917,39.6787,-18.99,100,98,0.16,RU,2024-2-10
510,grand-lahou,5.1367,-5.0242,27.78,77,68,1.65,CI,2024-2-10
511,hermiston,45.8404,-119.2895,3.71,86,0,1.54,US,2024-2-10
512,dara,15.3484,-15.4799,21.86,11,0,4.54,SN,2024-2-10
513,okha,53.5739,142.9478,-24.14,100,53,2.42,RU,2024-2-10
514,hawera,-39.5917,174.2833,15.68,75,98,6.86,NZ,2024-2-10
515,barakani,-12.1356,44.4317,28.21,79,98,4.59,KM,2024-2-10
516,dehdasht,30.7949,50.5646,16.09,30,94,1.1,IR,2024-2-10
517,itaituba,-4.2761,-55.9836,23.04,98,100,1.04,BR,2024-2-10
518,bumba,2.1833,22.4667,29.97,44,53,1.47,CD,2024-2-10
519,kelme,55.6339,22.9342,-3.99,94,100,6.31,LT,2024-2-10
520,pacasmayo,-7.4006,-79.5714,24.77,83,92,4.19,PE,2024-2-10
521,ponta delgada,37.7333,-25.6667,15.4,100,75,4.12,PT,2024-2-10
522,uchiza,-8.4592,-76.4633,21.98,96,91,0.53,PE,2024-2-10
523,hastings,50.8552,0.5729,9.6,94,99,3.25,GB,2024-2-10
524,nabire,-3.3667,135.4833,28.9,74,100,1.85,ID,2024-2-10
525,ambodifotatra,-16.9833,49.85,27.0,84,100,5.61,MG,2024-2-10
526,sidi ifni,29.3797,-10.173,17.86,89,87,3.9,MA,2024-2-10
527,nieuw amsterdam,5.8833,-55.0833,25.09,82,66,4.18,SR,2024-2-10
528,bireun,5.203,96.7009,30.41,62,13,6.97,ID,2024-2-10
529,sumbe,-11.2061,13.8437,27.2,74,97,0.97,AO,2024-2-10
530,filipstad,59.7124,14.1683,-12.32,92,98,4.52,SE,2024-2-10
531,illizi,26.4833,8.4667,19.63,11,100,2.88,DZ,2024-2-10
532,nkove,-7.95,30.85,25.8,71,85,1.2,TZ,2024-2-10
533,klyetsk,53.0635,26.6321,-1.71,92,100,7.23,BY,2024-2-10
534,oroqen zizhiqi,50.5667,123.7167,-10.53,86,99,0.78,CN,2024-2-10
535,akwanga,8.9167,8.3833,28.47,18,91,0.68,NG,2024-2-10
536,ola,59.5833,151.2833,-25.15,88,74,2.86,RU,2024-2-10
537,happy valley-goose bay,53.3168,-60.3315,-3.83,93,100,2.57,CA,2024-2-10
538,namtsy,62.7161,129.6658,-35.95,100,99,1.26,RU,2024-2-10
539,vilhena,-12.7406,-60.1458,21.3,96,80,0.89,BR,2024-2-10
540,paradip garh,20.3167,86.6167,29.0,17,0,3.19,IN,2024-2-10
541,yaring,6.8662,101.3689,29.2,66,77,8.15,TH,2024-2-10
542,bubaque,11.2833,-15.8333,25.99,68,0,4.18,GW,2024-2-10
543,akrehamn,59.2667,5.1833,0.79,55,0,9.26,NO,2024-2-10
544,sao jose da coroa grande,-8.8978,-35.1478,26.1,77,100,1.54,BR,2024-2-10
545,safi,32.1667,-8.8333,12.52,88,9,2.73,MA,2024-2-10
546,tammela,60.8104,23.7682,-16.8,93,17,2.33,FI,2024-2-10
547,emporia,38.4039,-96.1817,3.27,75,0,5.14,US,2024-2-10
548,gornyak,50.9942,81.4661,1.75,78,100,9.83,RU,2024-2-10
549,tahe,52.3333,124.7333,-11.28,89,95,0.67,CN,2024-2-10
550,oum hadjer,13.2954,19.6966,24.75,11,3,3.54,TD,2024-2-10
551,port macquarie,-31.4333,152.9167,22.16,97,51,2.49,AU,2024-2-10
552,makokou,0.5738,12.8642,28.37,64,100,1.44,GA,2024-2-10
553,shimokizukuri,40.8061,140.3861,2.19,73,100,2.0,JP,2024-2-10
554,tommot,58.9564,126.2925,-20.02,98,96,0.66,RU,2024-2-10
555,janakkala,60.9,24.6,-14.13,96,77,1.49,FI,2024-2-10
556,geraldton,-28.7667,114.6,39.23,12,0,9.26,AU,2024-2-10
557,galliano,29.4422,-90.2992,18.0,94,100,2.48,US,2024-2-10
558,tougan,13.0667,-3.0667,23.77,9,2,2.87,BF,2024-2-10
559,ain el bya,35.8039,-0.3018,16.16,80,24,17.41,DZ,2024-2-10
560,nha trang,12.25,109.1833,28.0,54,38,3.63,VN,2024-2-10
561,dzuunharaa,48.8523,106.4579,-5.45,81,76,1.32,MN,2024-2-10
562,paracale,14.2804,122.7881,25.5,77,41,6.73,PH,2024-2-10
